[
  {
    "id": 1,
    "name": "Cozy Apartment",
    "coverImage": "/data/bedroom1.jpg",
    "images": ["/data/bedroom1.jpg", "/data/bedroom2.webp", "/data/bedroom3.webp", "/data/bedroom4.jpg"],
    "type": "Self Contain",
    "price": 120000,
    "amenities": ["Water", "Electricity", "Kitchen"],
    "description": "A cozy apartment located in the heart of the city with all modern amenities.",
    "location": { "lat": 7.7729, "lng": 8.6188 }
  },
  {
    "id": 2,
    "name": "Comfort Lodge",
    "coverImage": "/data/bedroom2.webp",
    "images": ["/data/bedroom2.webp", "/data/bedroom5.jpg", "/data/bedroom6.jpg", "/data/bedroom7.jpg"],
    "type": "Single Room",
    "price": 80000,
    "amenities": ["Water", "Electricity"],
    "description": "Affordable single room apartment close to JOSTUM campus with reliable water supply.",
    "location": { "lat": 7.7733, "lng": 8.6191 }
  },
  {
    "id": 3,
    "name": "Palm View Apartment",
    "coverImage": "/data/bedroom3.webp",
    "images": ["/data/bedroom3.webp", "/data/bedroom8.jpg", "/data/bedroom9.jpg", "/data/bedroom10.jpg"],
    "type": "Self Contain",
    "price": 150000,
    "amenities": ["Water", "Electricity", "Tile", "Kitchen"],
    "description": "Modern self contain apartment with tiled floors and constant electricity.",
    "location": { "lat": 7.7730, "lng": 8.6194 }
  },
  {
    "id": 4,
    "name": "Grace Villa",
    "coverImage": "/data/bedroom4.jpg",
    "images": ["/data/bedroom4.jpg", "/data/bedroom11.jpg", "/data/bedroom12.jpg", "/data/bedroom13.jpg"],
    "type": "One Bedroom",
    "price": 180000,
    "amenities": ["Water", "Electricity", "Kitchen", "Bathroom"],
    "description": "Spacious one bedroom flat ideal for students and young professionals.",
    "location": { "lat": 7.7736, "lng": 8.6199 }
  },
  {
    "id": 5,
    "name": "Benue Homes",
    "coverImage": "/data/bedroom5.jpg",
    "images": ["/data/bedroom5.jpg", "/data/bedroom14.jpg", "/data/bedroom15.jpg", "/data/bedroom16.jpg"],
    "type": "Self Contain",
    "price": 130000,
    "amenities": ["Water", "Electricity", "Tile"],
    "description": "Well maintained apartment located near JOSTUM second gate.",
    "location": { "lat": 7.7740, "lng": 8.6201 }
  },
  {
    "id": 6,
    "name": "Victory Lodge",
    "coverImage": "/data/bedroom6.jpg",
    "images": ["/data/bedroom6.jpg", "/data/bedroom1.jpg", "/data/bedroom3.webp", "/data/bedroom7.jpg"],
    "type": "Single Room",
    "price": 90000,
    "amenities": ["Water", "Electricity", "Tile"],
    "description": "Simple and neat single room apartment perfect for students.",
    "location": { "lat": 7.7738, "lng": 8.6187 }
  },
  {
    "id": 7,
    "name": "Sunrise Apartment",
    "coverImage": "/data/bedroom7.jpg",
    "images": ["/data/bedroom7.jpg", "/data/bedroom8.jpg", "/data/bedroom10.jpg", "/data/bedroom11.jpg"],
    "type": "One Bedroom",
    "price": 200000,
    "amenities": ["Water", "Electricity", "Kitchen", "Bathroom", "Tile"],
    "description": "Newly built one bedroom apartment with modern fittings and secure environment.",
    "location": { "lat": 7.7742, "lng": 8.6195 }
  },
  {
    "id": 8,
    "name": "Greenfield Lodge",
    "coverImage": "/data/bedroom8.jpg",
    "images": ["/data/bedroom8.jpg", "/data/bedroom9.jpg", "/data/bedroom13.jpg", "/data/bedroom15.jpg"],
    "type": "Self Contain",
    "price": 110000,
    "amenities": ["Water", "Electricity"],
    "description": "Affordable self contain with clean environment and steady light.",
    "location": { "lat": 7.7745, "lng": 8.6192 }
  },
  {
    "id": 9,
    "name": "Royal Haven",
    "coverImage": "/data/bedroom9.jpg",
    "images": ["/data/bedroom9.jpg", "/data/bedroom10.jpg", "/data/bedroom12.jpg", "/data/bedroom14.jpg"],
    "type": "One Bedroom",
    "price": 220000,
    "amenities": ["Water", "Electricity", "Kitchen", "Tile"],
    "description": "Luxury apartment featuring kitchen and tiled floors in a quiet area.",
    "location": { "lat": 7.7747, "lng": 8.6189 }
  },
  {
    "id": 10,
    "name": "Peace Lodge",
    "coverImage": "/data/bedroom10.jpg",
    "images": ["/data/bedroom10.jpg", "/data/bedroom1.jpg", "/data/bedroom2.webp", "/data/bedroom5.jpg"],
    "type": "Single Room",
    "price": 75000,
    "amenities": ["Water"],
    "description": "Budget-friendly room option with easy access to campus shuttle.",
    "location": { "lat": 7.7732, "lng": 8.6186 }
  },
  {
    "id": 11,
    "name": "Hilltop Apartment",
    "coverImage": "/data/bedroom11.jpg",
    "images": ["/data/bedroom11.jpg", "/data/bedroom3.webp", "/data/bedroom7.jpg", "/data/bedroom16.jpg"],
    "type": "Self Contain",
    "price": 125000,
    "amenities": ["Water", "Electricity", "Kitchen"],
    "description": "Beautiful self contain located at the top of the hill with great view.",
    "location": { "lat": 7.7741, "lng": 8.6188 }
  },
  {
    "id": 12,
    "name": "Bright Homes",
    "coverImage": "/data/bedroom12.jpg",
    "images": ["/data/bedroom12.jpg", "/data/bedroom9.jpg", "/data/bedroom13.jpg", "/data/bedroom14.jpg"],
    "type": "Self Contain",
    "price": 140000,
    "amenities": ["Water", "Electricity", "Tile"],
    "description": "Neat and spacious self contain apartment with steady power supply.",
    "location": { "lat": 7.7734, "lng": 8.6202 }
  },
  {
    "id": 13,
    "name": "Faith Apartment",
    "coverImage": "/data/bedroom13.jpg",
    "images": ["/data/bedroom13.jpg", "/data/bedroom15.jpg", "/data/bedroom5.jpg", "/data/bedroom8.jpg"],
    "type": "One Bedroom",
    "price": 190000,
    "amenities": ["Water", "Electricity", "Kitchen"],
    "description": "Peaceful one bedroom flat with water system and clean environment.",
    "location": { "lat": 7.7737, "lng": 8.6198 }
  },
  {
    "id": 14,
    "name": "Zion Lodge",
    "coverImage": "/data/bedroom14.jpg",
    "images": ["/data/bedroom14.jpg", "/data/bedroom1.jpg", "/data/bedroom10.jpg", "/data/bedroom16.jpg"],
    "type": "Single Room",
    "price": 85000,
    "amenities": ["Water", "Electricity"],
    "description": "Student-friendly lodge with essential amenities and nearby shops.",
    "location": { "lat": 7.7743, "lng": 8.6185 }
  },
  {
    "id": 15,
    "name": "Divine Homes",
    "coverImage": "/data/bedroom15.jpg",
    "images": ["/data/bedroom15.jpg", "/data/bedroom2.webp", "/data/bedroom4.jpg", "/data/bedroom9.jpg"],
    "type": "Self Contain",
    "price": 160000,
    "amenities": ["Water", "Electricity", "Tile", "Kitchen"],
    "description": "Tiled modern self contain with private kitchen and bathroom.",
    "location": { "lat": 7.7748, "lng": 8.6196 }
  },
  {
    "id": 16,
    "name": "Heritage Court",
    "coverImage": "/data/bedroom16.jpg",
    "images": ["/data/bedroom16.jpg", "/data/bedroom6.jpg", "/data/bedroom7.jpg", "/data/bedroom8.jpg"],
    "type": "One Bedroom",
    "price": 210000,
    "amenities": ["Water", "Electricity", "Kitchen", "Bathroom"],
    "description": "Stylish apartment offering a comfortable living experience with modern facilities.",
    "location": { "lat": 7.7735, "lng": 8.6190 }
  }
]
